{
  "foundDrivers": [
    {
      "name": "Даниил Мартынов",
      "telephone": "+79095678439",
      "time": "16:00",
      "seats": 1,
      "from": {
        "longitude": 55.2323,
        "latitude": 23.3212
      },
      "to": {
        "longitude": 55.2323,
        "latitude": 23.3212
      }
    },
    {
      "name": "Даниил Мартынов",
      "telephone": "+79095678439",
      "time": "16:00",
      "seats": 1,
      "from": {
        "longitude": 55.2323,
        "latitude": 23.3212
      },
      "to": {
        "longitude": 55.2323,
        "latitude": 23.3212
      }
    },
    {
      "name": "Даниил Мартынов",
      "telephone": "+79095678439",
      "time": "16:00",
      "seats": 1,
      "from": {
        "longitude": 55.2323,
        "latitude": 23.3212
      },
      "to": {
        "longitude": 55.2323,
        "latitude": 23.3212
      }
    },
    {
      "name": "Даниил Мартынов",
      "telephone": "+79095678439",
      "time": "16:00",
      "seats": 1,
      "from": {
        "longitude": 55.2323,
        "latitude": 23.3212
      },
      "to": {
        "longitude": 55.2323,
        "latitude": 23.3212
      }
    },
    {
      "name": "Даниил Мартынов",
      "telephone": "+79095678439",
      "time": "16:00",
      "seats": 1,
      "from": {
        "longitude": 55.2323,
        "latitude": 23.3212
      },
      "to": {
        "longitude": 55.2323,
        "latitude": 23.3212
      }
    }
  ],
  "foundPassengers": [
    {
      "name": "Никита Логвиненко",
      "telephone": "+79095678439",
      "time": "12:20",
      "from": "Невский проспект, 39Б",
      "to": "Кронверкская улица, 13"
    },
    {
      "name": "Илья Воробьев",
      "telephone": "+79095678439",
      "time": "15:30",
      "from": "Невский проспект, 39Б",
      "to": "Кронверкский проспект, 49"
    },
    {
      "name": "Даниил Мартынов",
      "telephone": "+79095678439",
      "time": "16:00",
      "from": "улица Ломоносова, 9",
      "to": "Кронверкский проспект, 49"
    },
    {
      "name": "Никита Логвиненко",
      "telephone": "+79095678439",
      "time": "12:20",
      "from": "Невский проспект, 39Б",
      "to": "Кронверкская улица, 13"
    },
    {
      "name": "Саша Блашенков",
      "telephone": "+79095678439",
      "time": "11:50",
      "from": "Невский проспект, 39Б",
      "to": "Кронверкский проспект, 49"
    },
    {
      "name": "Сергей Ельников",
      "telephone": "+79095678439",
      "time": "11:30",
      "from": "Невский проспект, 39Б",
      "to": "Кронверкский проспект, 49"
    },
    {
      "name": "Саша Блашенков",
      "telephone": "+79095678439",
      "time": "11:50",
      "from": "Невский проспект, 39Б",
      "to": "Кронверкский проспект, 49"
    },
    {
      "name": "Сергей Ельников",
      "telephone": "+79095678439",
      "time": "11:30",
      "from": "Невский проспект, 39Б",
      "to": "Кронверкский проспект, 49"
    }
  ],
  "authUser": {
    "telephone": "+79037263636",
    "isAuth": true
  },
  "driver": {
    "name": "tttt",
    "telephone": "5345345",
    "seats": 2,
    "time": null,
    "from": {
      "longitude": 333,
      "latitude": 333
    },
    "to": {
      "longitude": 222,
      "latitude": 222
    }
  },
  "passenger": {
    "name": null,
    "telephone": null,
    "time": null,
    "from": {
      "longitude": null,
      "latitude": null
    },
    "to": {
      "longitude": null,
      "latitude": null
    }
  }
}